[
			{
				"cityName": "臺北市/中正區",
				"coords":{
                    "lng": "121.5198839",
                    "lat": "25.03240487"
                }
			},
			{
				"cityName": "臺北市/大同區",
				"coords":{
                    "lng": "121.5130417",
                    "lat": "25.06342433"
                }
			},
			{
				"cityName": "臺北市/中山區",
				"coords":{
                    "lng": "121.5381597",
                    "lat": "25.06969917"
                }
			},
			{
				"cityName": "臺北市/松山區",
				"coords":{
                    "lng": "121.5575876",
                    "lat": "25.05999101"
                }
			},
			{
				"cityName": "臺北市/大安區",
				"coords":{
                    "lng": "121.5434446",
                    "lat": "25.02677012"
                }
			},
			{
				"cityName": "臺北市/萬華區",
				"coords":{
                    "lng": "121.4979858",
                    "lat": "25.0285899"
                }
			},
			{
				"cityName": "臺北市/信義區",
				"coords":{
                    "lng": "121.5716697",
                    "lat": "25.03062083"
                }
			},
			{
				"cityName": "臺北市/士林區",
				"coords":{
                    "lng": "121.5508473",
                    "lat": "25.12546704"
                }
			},
			{
				"cityName": "臺北市/北投區",
				"coords":{
                    "lng": "121.5177992",
                    "lat": "25.1480682"
                }
			},
			{
				"cityName": "臺北市/內湖區",
				"coords":{
                    "lng": "121.5923828",
                    "lat": "25.08370623"
                }
			},
			{
				"cityName": "臺北市/南港區",
				"coords":{
                    "lng": "121.6097573",
                    "lat": "25.03600934"
                }
			},
			{
				"cityName": "臺北市/文山區",
				"coords":{
                    "lng": "121.5736082",
                    "lat": "24.98857934"
                }
			},
			{
				"cityName": "基隆市/仁愛區",
				"coords":{
                    "lng": "121.7434205",
                    "lat": "25.11945421"
                }
			},
			{
				"cityName": "基隆市/信義區",
				"coords":{
                    "lng": "121.772646",
                    "lat": "25.12576579"
                }
			},
			{
				"cityName": "基隆市/中正區",
				"coords":{
                    "lng": "121.7783549",
                    "lat": "25.14365754"
                }
			},
			{
				"cityName": "基隆市/中山區",
				"coords":{
                    "lng": "121.7308913",
                    "lat": "25.14986365"
                }
			},
			{
				"cityName": "基隆市/安樂區",
				"coords":{
                    "lng": "121.7078325",
                    "lat": "25.14139521"
                }
			},
			{
				"cityName": "基隆市/暖暖區",
				"coords":{
                    "lng": "121.7447344",
                    "lat": "25.08097003"
                }
			},
			{
				"cityName": "基隆市/七堵區",
				"coords":{
                    "lng": "121.683628",
                    "lat": "25.10962028"
                }
			},
			{
				"cityName": "新北市/萬里區",
				"coords":{
                    "lng": "121.6439307",
                    "lat": "25.17572457"
                }
			},
			{
				"cityName": "新北市/金山區",
				"coords":{
                    "lng": "121.6052639",
                    "lat": "25.21714594"
                }
			},
			{
				"cityName": "連江縣/南竿鄉",
				"coords":{
                    "lng": "119.931128",
                    "lat": "26.154321"
                }
			},
			{
				"cityName": "連江縣/北竿鄉",
				"coords":{
                    "lng": "119.994251",
                    "lat": "26.225637"
                }
			},
			{
				"cityName": "連江縣/莒光鄉",
				"coords":{
                    "lng": "119.938877",
                    "lat": "25.97298"
                }
			},
			{
				"cityName": "連江縣/東引鄉",
				"coords":{
                    "lng": "120.4903",
                    "lat": "26.366101"
                }
			},
			{
				"cityName": "新北市/板橋區",
				"coords":{
                    "lng": "121.4579675",
                    "lat": "25.01186453"
                }
			},
			{
				"cityName": "新北市/汐止區",
				"coords":{
                    "lng": "121.6546992",
                    "lat": "25.07331322"
                }
			},
			{
				"cityName": "新北市/深坑區",
				"coords":{
                    "lng": "121.6200624",
                    "lat": "24.99767506"
                }
			},
			{
				"cityName": "新北市/石碇區",
				"coords":{
                    "lng": "121.6472277",
                    "lat": "24.94714107"
                }
			},
			{
				"cityName": "新北市/瑞芳區",
				"coords":{
                    "lng": "121.8232018",
                    "lat": "25.0981293"
                }
			},
			{
				"cityName": "新北市/平溪區",
				"coords":{
                    "lng": "121.7578817",
                    "lat": "25.02607068"
                }
			},
			{
				"cityName": "新北市/雙溪區",
				"coords":{
                    "lng": "121.8329822",
                    "lat": "24.99698394"
                }
			},
			{
				"cityName": "新北市/貢寮區",
				"coords":{
                    "lng": "121.9182466",
                    "lat": "25.02485641"
                }
			},
			{
				"cityName": "新北市/新店區",
				"coords":{
                    "lng": "121.5316565",
                    "lat": "24.93039008"
                }
			},
			{
				"cityName": "新北市/坪林區",
				"coords":{
                    "lng": "121.724223",
                    "lat": "24.91097073"
                }
			},
			{
				"cityName": "新北市/烏來區",
				"coords":{
                    "lng": "121.5414806",
                    "lat": "24.78824295"
                }
			},
			{
				"cityName": "新北市/永和區",
				"coords":{
                    "lng": "121.516745",
                    "lat": "25.00810199"
                }
			},
			{
				"cityName": "新北市/中和區",
				"coords":{
                    "lng": "121.4936744",
                    "lat": "24.99088039"
                }
			},
			{
				"cityName": "新北市/土城區",
				"coords":{
                    "lng": "121.445737",
                    "lat": "24.96425102"
                }
			},
			{
				"cityName": "新北市/三峽區",
				"coords":{
                    "lng": "121.4163094",
                    "lat": "24.88209766"
                }
			},
			{
				"cityName": "新北市/樹林區",
				"coords":{
                    "lng": "121.401034",
                    "lat": "24.97970609"
                }
			},
			{
				"cityName": "新北市/鶯歌區",
				"coords":{
                    "lng": "121.3466269",
                    "lat": "24.9566258"
                }
			},
			{
				"cityName": "新北市/三重區",
				"coords":{
                    "lng": "121.4870977",
                    "lat": "25.06281651"
                }
			},
			{
				"cityName": "新北市/新莊區",
				"coords":{
                    "lng": "121.4367535",
                    "lat": "25.0358303"
                }
			},
			{
				"cityName": "新北市/泰山區",
				"coords":{
                    "lng": "121.4162785",
                    "lat": "25.05549774"
                }
			},
			{
				"cityName": "新北市/林口區",
				"coords":{
                    "lng": "121.3527235",
                    "lat": "25.1000868"
                }
			},
			{
				"cityName": "新北市/蘆洲區",
				"coords":{
                    "lng": "121.4712461",
                    "lat": "25.08927173"
                }
			},
			{
				"cityName": "新北市/五股區",
				"coords":{
                    "lng": "121.4332139",
                    "lat": "25.09614746"
                }
			},
			{
				"cityName": "新北市/八里區",
				"coords":{
                    "lng": "121.4138359",
                    "lat": "25.13812763"
                }
			},
			{
				"cityName": "新北市/淡水區",
				"coords":{
                    "lng": "121.463904",
                    "lat": "25.18907636"
                }
			},
			{
				"cityName": "新北市/三芝區",
				"coords":{
                    "lng": "121.515558",
                    "lat": "25.23159891"
                }
			},
			{
				"cityName": "新北市/石門區",
				"coords":{
                    "lng": "121.5692761",
                    "lat": "25.26518079"
                }
			},
			{
				"cityName": "宜蘭縣/宜蘭市",
				"coords":{
                    "lng": "121.7569358",
                    "lat": "24.75021184"
                }
			},
			{
				"cityName": "宜蘭縣/頭城鎮",
				"coords":{
                    "lng": "121.845797",
                    "lat": "24.90075882"
                }
			},
			{
				"cityName": "宜蘭縣/礁溪鄉",
				"coords":{
                    "lng": "121.7346606",
                    "lat": "24.81144192"
                }
			},
			{
				"cityName": "宜蘭縣/壯圍鄉",
				"coords":{
                    "lng": "121.8017622",
                    "lat": "24.75183042"
                }
			},
			{
				"cityName": "宜蘭縣/員山鄉",
				"coords":{
                    "lng": "121.6612282",
                    "lat": "24.74199237"
                }
			},
			{
				"cityName": "宜蘭縣/羅東鎮",
				"coords":{
                    "lng": "121.7701782",
                    "lat": "24.67884824"
                }
			},
			{
				"cityName": "宜蘭縣/三星鄉",
				"coords":{
                    "lng": "121.6642714",
                    "lat": "24.66771972"
                }
			},
			{
				"cityName": "宜蘭縣/大同鄉",
				"coords":{
                    "lng": "121.5040369",
                    "lat": "24.55152082"
                }
			},
			{
				"cityName": "宜蘭縣/五結鄉",
				"coords":{
                    "lng": "121.8058342",
                    "lat": "24.68887343"
                }
			},
			{
				"cityName": "宜蘭縣/冬山鄉",
				"coords":{
                    "lng": "121.760255",
                    "lat": "24.64214986"
                }
			},
			{
				"cityName": "宜蘭縣/蘇澳鎮",
				"coords":{
                    "lng": "121.8346892",
                    "lat": "24.55467058"
                }
			},
			{
				"cityName": "宜蘭縣/南澳鄉",
				"coords":{
                    "lng": "121.6560593",
                    "lat": "24.44864058"
                }
			},
			{
				"cityName": "宜蘭縣/釣魚臺列嶼",
				"coords":{
                    "lng": "123.475482",
                    "lat": "25.746396"
                }
			},
			{
				"cityName": "新竹市/北區",
				"coords":{
                    "lng": "120.9491233",
                    "lat": "24.82269542"
                }
			},
			{
				"cityName": "新竹市/東區",
				"coords":{
                    "lng": "120.9927505",
                    "lat": "24.79028174"
                }
			},
			{
				"cityName": "新竹市/香山區",
				"coords":{
                    "lng": "120.9236727",
                    "lat": "24.77104342"
                }
			},
			{
				"cityName": "新竹縣/竹北市",
				"coords":{
                    "lng": "120.9948704",
                    "lat": "24.83816209"
                }
			},
			{
				"cityName": "新竹縣/湖口鄉",
				"coords":{
                    "lng": "121.0517242",
                    "lat": "24.88566341"
                }
			},
			{
				"cityName": "新竹縣/新豐鄉",
				"coords":{
                    "lng": "120.9956033",
                    "lat": "24.90731298"
                }
			},
			{
				"cityName": "新竹縣/新埔鎮",
				"coords":{
                    "lng": "121.0939886",
                    "lat": "24.84133959"
                }
			},
			{
				"cityName": "新竹縣/關西鎮",
				"coords":{
                    "lng": "121.1866221",
                    "lat": "24.78514681"
                }
			},
			{
				"cityName": "新竹縣/芎林鄉",
				"coords":{
                    "lng": "121.1046394",
                    "lat": "24.7657116"
                }
			},
			{
				"cityName": "新竹縣/寶山鄉",
				"coords":{
                    "lng": "120.9991605",
                    "lat": "24.73697351"
                }
			},
			{
				"cityName": "新竹縣/竹東鎮",
				"coords":{
                    "lng": "121.0753632",
                    "lat": "24.73075802"
                }
			},
			{
				"cityName": "新竹縣/五峰鄉",
				"coords":{
                    "lng": "121.1389495",
                    "lat": "24.578054"
                }
			},
			{
				"cityName": "新竹縣/橫山鄉",
				"coords":{
                    "lng": "121.1469732",
                    "lat": "24.7078092"
                }
			},
			{
				"cityName": "新竹縣/尖石鄉",
				"coords":{
                    "lng": "121.2819341",
                    "lat": "24.59493235"
                }
			},
			{
				"cityName": "新竹縣/北埔鄉",
				"coords":{
                    "lng": "121.0642745",
                    "lat": "24.67207405"
                }
			},
			{
				"cityName": "新竹縣/峨眉鄉",
				"coords":{
                    "lng": "121.0110809",
                    "lat": "24.67811197"
                }
			},
			{
				"cityName": "桃園市/中壢區",
				"coords":{
                    "lng": "121.2147243",
                    "lat": "24.97993803"
                }
			},
			{
				"cityName": "桃園市/平鎮區",
				"coords":{
                    "lng": "121.2140051",
                    "lat": "24.92117923"
                }
			},
			{
				"cityName": "桃園市/龍潭區",
				"coords":{
                    "lng": "121.2117877",
                    "lat": "24.85064954"
                }
			},
			{
				"cityName": "桃園市/楊梅區",
				"coords":{
                    "lng": "121.1291697",
                    "lat": "24.91820989"
                }
			},
			{
				"cityName": "桃園市/新屋區",
				"coords":{
                    "lng": "121.067758",
                    "lat": "24.97280352"
                }
			},
			{
				"cityName": "桃園市/觀音區",
				"coords":{
                    "lng": "121.1155021",
                    "lat": "25.02671611"
                }
			},
			{
				"cityName": "桃園市/桃園區",
				"coords":{
                    "lng": "121.2996612",
                    "lat": "25.00040024"
                }
			},
			{
				"cityName": "桃園市/龜山區",
				"coords":{
                    "lng": "121.3569265",
                    "lat": "25.02417472"
                }
			},
			{
				"cityName": "桃園市/八德區",
				"coords":{
                    "lng": "121.2913102",
                    "lat": "24.94968903"
                }
			},
			{
				"cityName": "桃園市/大溪區",
				"coords":{
                    "lng": "121.296342",
                    "lat": "24.86797026"
                }
			},
			{
				"cityName": "桃園市/復興區",
				"coords":{
                    "lng": "121.3754588",
                    "lat": "24.72949884"
                }
			},
			{
				"cityName": "桃園市/大園區",
				"coords":{
                    "lng": "121.21177",
                    "lat": "25.06384709"
                }
			},
			{
				"cityName": "桃園市/蘆竹區",
				"coords":{
                    "lng": "121.2831266",
                    "lat": "25.06073337"
                }
			},
			{
				"cityName": "苗栗縣/竹南鎮",
				"coords":{
                    "lng": "120.8777316",
                    "lat": "24.69862459"
                }
			},
			{
				"cityName": "苗栗縣/頭份市",
				"coords":{
                    "lng": "120.9189437",
                    "lat": "24.67628243"
                }
			},
			{
				"cityName": "苗栗縣/三灣鄉",
				"coords":{
                    "lng": "120.9525745",
                    "lat": "24.63599405"
                }
			},
			{
				"cityName": "苗栗縣/南庄鄉",
				"coords":{
                    "lng": "121.017471",
                    "lat": "24.56608432"
                }
			},
			{
				"cityName": "苗栗縣/獅潭鄉",
				"coords":{
                    "lng": "120.9206688",
                    "lat": "24.51978614"
                }
			},
			{
				"cityName": "苗栗縣/後龍鎮",
				"coords":{
                    "lng": "120.781205",
                    "lat": "24.6156265"
                }
			},
			{
				"cityName": "苗栗縣/通霄鎮",
				"coords":{
                    "lng": "120.7146378",
                    "lat": "24.4850464"
                }
			},
			{
				"cityName": "苗栗縣/苑裡鎮",
				"coords":{
                    "lng": "120.6882195",
                    "lat": "24.4110232"
                }
			},
			{
				"cityName": "苗栗縣/苗栗市",
				"coords":{
                    "lng": "120.8112299",
                    "lat": "24.56382141"
                }
			},
			{
				"cityName": "苗栗縣/造橋鄉",
				"coords":{
                    "lng": "120.8695663",
                    "lat": "24.62481314"
                }
			},
			{
				"cityName": "苗栗縣/頭屋鄉",
				"coords":{
                    "lng": "120.8826631",
                    "lat": "24.57345497"
                }
			},
			{
				"cityName": "苗栗縣/公館鄉",
				"coords":{
                    "lng": "120.8505904",
                    "lat": "24.50249686"
                }
			},
			{
				"cityName": "苗栗縣/大湖鄉",
				"coords":{
                    "lng": "120.8631192",
                    "lat": "24.39359641"
                }
			},
			{
				"cityName": "苗栗縣/泰安鄉",
				"coords":{
                    "lng": "121.0681571",
                    "lat": "24.41925819"
                }
			},
			{
				"cityName": "苗栗縣/銅鑼鄉",
				"coords":{
                    "lng": "120.7992043",
                    "lat": "24.45591832"
                }
			},
			{
				"cityName": "苗栗縣/三義鄉",
				"coords":{
                    "lng": "120.7701929",
                    "lat": "24.38081659"
                }
			},
			{
				"cityName": "苗栗縣/西湖鄉",
				"coords":{
                    "lng": "120.7614144",
                    "lat": "24.54153218"
                }
			},
			{
				"cityName": "苗栗縣/卓蘭鎮",
				"coords":{
                    "lng": "120.8561966",
                    "lat": "24.32510167"
                }
			},
			{
				"cityName": "臺中市/中區",
				"coords":{
                    "lng": "120.680598",
                    "lat": "24.14168566"
                }
			},
			{
				"cityName": "臺中市/東區",
				"coords":{
                    "lng": "120.6970865",
                    "lat": "24.13733209"
                }
			},
			{
				"cityName": "臺中市/南區",
				"coords":{
                    "lng": "120.6646178",
                    "lat": "24.12114107"
                }
			},
			{
				"cityName": "臺中市/西區",
				"coords":{
                    "lng": "120.6647579",
                    "lat": "24.14391082"
                }
			},
			{
				"cityName": "臺中市/北區",
				"coords":{
                    "lng": "120.6809521",
                    "lat": "24.15863985"
                }
			},
			{
				"cityName": "臺中市/北屯區",
				"coords":{
                    "lng": "120.7362319",
                    "lat": "24.18400298"
                }
			},
			{
				"cityName": "臺中市/西屯區",
				"coords":{
                    "lng": "120.6270131",
                    "lat": "24.18308895"
                }
			},
			{
				"cityName": "臺中市/南屯區",
				"coords":{
                    "lng": "120.6177379",
                    "lat": "24.14165524"
                }
			},
			{
				"cityName": "臺中市/太平區",
				"coords":{
                    "lng": "120.7734217",
                    "lat": "24.11477375"
                }
			},
			{
				"cityName": "臺中市/大里區",
				"coords":{
                    "lng": "120.6926261",
                    "lat": "24.09575742"
                }
			},
			{
				"cityName": "臺中市/霧峰區",
				"coords":{
                    "lng": "120.7201989",
                    "lat": "24.04332785"
                }
			},
			{
				"cityName": "臺中市/烏日區",
				"coords":{
                    "lng": "120.6293305",
                    "lat": "24.0839271"
                }
			},
			{
				"cityName": "臺中市/豐原區",
				"coords":{
                    "lng": "120.7375715",
                    "lat": "24.24990298"
                }
			},
			{
				"cityName": "臺中市/后里區",
				"coords":{
                    "lng": "120.7146127",
                    "lat": "24.30962483"
                }
			},
			{
				"cityName": "臺中市/石岡區",
				"coords":{
                    "lng": "120.7903822",
                    "lat": "24.26493299"
                }
			},
			{
				"cityName": "臺中市/東勢區",
				"coords":{
                    "lng": "120.8401401",
                    "lat": "24.24952637"
                }
			},
			{
				"cityName": "臺中市/和平區",
				"coords":{
                    "lng": "121.140185",
                    "lat": "24.27620277"
                }
			},
			{
				"cityName": "臺中市/新社區",
				"coords":{
                    "lng": "120.8313228",
                    "lat": "24.17769289"
                }
			},
			{
				"cityName": "臺中市/潭子區",
				"coords":{
                    "lng": "120.710997",
                    "lat": "24.21171121"
                }
			},
			{
				"cityName": "臺中市/大雅區",
				"coords":{
                    "lng": "120.6411818",
                    "lat": "24.22704181"
                }
			},
			{
				"cityName": "臺中市/神岡區",
				"coords":{
                    "lng": "120.6733321",
                    "lat": "24.26568008"
                }
			},
			{
				"cityName": "臺中市/大肚區",
				"coords":{
                    "lng": "120.5543243",
                    "lat": "24.14467504"
                }
			},
			{
				"cityName": "臺中市/沙鹿區",
				"coords":{
                    "lng": "120.5838628",
                    "lat": "24.23425212"
                }
			},
			{
				"cityName": "臺中市/龍井區",
				"coords":{
                    "lng": "120.5283728",
                    "lat": "24.20062892"
                }
			},
			{
				"cityName": "臺中市/梧棲區",
				"coords":{
                    "lng": "120.5301259",
                    "lat": "24.24552431"
                }
			},
			{
				"cityName": "臺中市/清水區",
				"coords":{
                    "lng": "120.5809094",
                    "lat": "24.29205743"
                }
			},
			{
				"cityName": "臺中市/大甲區",
				"coords":{
                    "lng": "120.6357901",
                    "lat": "24.37827161"
                }
			},
			{
				"cityName": "臺中市/外埔區",
				"coords":{
                    "lng": "120.6650639",
                    "lat": "24.33551071"
                }
			},
			{
				"cityName": "臺中市/大安區",
				"coords":{
                    "lng": "120.5914407",
                    "lat": "24.36509555"
                }
			},
			{
				"cityName": "彰化縣/彰化市",
				"coords":{
                    "lng": "120.5694208",
                    "lat": "24.07532909"
                }
			},
			{
				"cityName": "彰化縣/芬園鄉",
				"coords":{
                    "lng": "120.6294414",
                    "lat": "24.00628794"
                }
			},
			{
				"cityName": "彰化縣/花壇鄉",
				"coords":{
                    "lng": "120.5597655",
                    "lat": "24.03006875"
                }
			},
			{
				"cityName": "彰化縣/秀水鄉",
				"coords":{
                    "lng": "120.5041184",
                    "lat": "24.03249405"
                }
			},
			{
				"cityName": "彰化縣/鹿港鎮",
				"coords":{
                    "lng": "120.4385491",
                    "lat": "24.08286685"
                }
			},
			{
				"cityName": "彰化縣/福興鄉",
				"coords":{
                    "lng": "120.4310511",
                    "lat": "24.03021674"
                }
			},
			{
				"cityName": "彰化縣/線西鄉",
				"coords":{
                    "lng": "120.452157",
                    "lat": "24.13158127"
                }
			},
			{
				"cityName": "彰化縣/和美鎮",
				"coords":{
                    "lng": "120.5112045",
                    "lat": "24.11379535"
                }
			},
			{
				"cityName": "彰化縣/伸港鄉",
				"coords":{
                    "lng": "120.486449",
                    "lat": "24.16367107"
                }
			},
			{
				"cityName": "彰化縣/員林市",
				"coords":{
                    "lng": "120.593073",
                    "lat": "23.95650448"
                }
			},
			{
				"cityName": "彰化縣/社頭鄉",
				"coords":{
                    "lng": "120.6021661",
                    "lat": "23.90536413"
                }
			},
			{
				"cityName": "彰化縣/永靖鄉",
				"coords":{
                    "lng": "120.5416032",
                    "lat": "23.92139507"
                }
			},
			{
				"cityName": "彰化縣/埔心鄉",
				"coords":{
                    "lng": "120.5342802",
                    "lat": "23.95277521"
                }
			},
			{
				"cityName": "彰化縣/溪湖鎮",
				"coords":{
                    "lng": "120.4831739",
                    "lat": "23.95171456"
                }
			},
			{
				"cityName": "彰化縣/大村鄉",
				"coords":{
                    "lng": "120.5586866",
                    "lat": "23.99209206"
                }
			},
			{
				"cityName": "彰化縣/埔鹽鄉",
				"coords":{
                    "lng": "120.4594626",
                    "lat": "23.99204417"
                }
			},
			{
				"cityName": "彰化縣/田中鎮",
				"coords":{
                    "lng": "120.5903471",
                    "lat": "23.85723872"
                }
			},
			{
				"cityName": "彰化縣/北斗鎮",
				"coords":{
                    "lng": "120.5331566",
                    "lat": "23.867574"
                }
			},
			{
				"cityName": "彰化縣/田尾鄉",
				"coords":{
                    "lng": "120.5223244",
                    "lat": "23.90056065"
                }
			},
			{
				"cityName": "彰化縣/埤頭鄉",
				"coords":{
                    "lng": "120.4675642",
                    "lat": "23.88234118"
                }
			},
			{
				"cityName": "彰化縣/溪州鄉",
				"coords":{
                    "lng": "120.5224904",
                    "lat": "23.82725185"
                }
			},
			{
				"cityName": "彰化縣/竹塘鄉",
				"coords":{
                    "lng": "120.4136645",
                    "lat": "23.8505872"
                }
			},
			{
				"cityName": "彰化縣/二林鎮",
				"coords":{
                    "lng": "120.404225",
                    "lat": "23.91621405"
                }
			},
			{
				"cityName": "彰化縣/大城鄉",
				"coords":{
                    "lng": "120.3113284",
                    "lat": "23.85069276"
                }
			},
			{
				"cityName": "彰化縣/芳苑鄉",
				"coords":{
                    "lng": "120.3539226",
                    "lat": "23.9537906"
                }
			},
			{
				"cityName": "彰化縣/二水鄉",
				"coords":{
                    "lng": "120.628589",
                    "lat": "23.8092402"
                }
			},
			{
				"cityName": "南投縣/南投市",
				"coords":{
                    "lng": "120.6787658",
                    "lat": "23.92173537"
                }
			},
			{
				"cityName": "南投縣/中寮鄉",
				"coords":{
                    "lng": "120.7859159",
                    "lat": "23.90589214"
                }
			},
			{
				"cityName": "南投縣/草屯鎮",
				"coords":{
                    "lng": "120.7326182",
                    "lat": "23.98321081"
                }
			},
			{
				"cityName": "南投縣/國姓鄉",
				"coords":{
                    "lng": "120.8676052",
                    "lat": "24.03135413"
                }
			},
			{
				"cityName": "南投縣/埔里鎮",
				"coords":{
                    "lng": "120.9625259",
                    "lat": "23.97892591"
                }
			},
			{
				"cityName": "南投縣/仁愛鄉",
				"coords":{
                    "lng": "121.1443879",
                    "lat": "24.02886513"
                }
			},
			{
				"cityName": "南投縣/名間鄉",
				"coords":{
                    "lng": "120.6774402",
                    "lat": "23.8510771"
                }
			},
			{
				"cityName": "南投縣/集集鎮",
				"coords":{
                    "lng": "120.7854192",
                    "lat": "23.83701687"
                }
			},
			{
				"cityName": "南投縣/水里鄉",
				"coords":{
                    "lng": "120.8622721",
                    "lat": "23.79612907"
                }
			},
			{
				"cityName": "南投縣/魚池鄉",
				"coords":{
                    "lng": "120.9256736",
                    "lat": "23.87601213"
                }
			},
			{
				"cityName": "南投縣/信義鄉",
				"coords":{
                    "lng": "121.0212867",
                    "lat": "23.6554647"
                }
			},
			{
				"cityName": "南投縣/竹山鎮",
				"coords":{
                    "lng": "120.7100797",
                    "lat": "23.69805518"
                }
			},
			{
				"cityName": "南投縣/鹿谷鄉",
				"coords":{
                    "lng": "120.7815065",
                    "lat": "23.73776029"
                }
			},
			{
				"cityName": "嘉義市/西區",
				"coords":{
                    "lng": "120.4248724",
                    "lat": "23.47915529"
                }
			},
			{
				"cityName": "嘉義市/東區",
				"coords":{
                    "lng": "120.4706244",
                    "lat": "23.48170334"
                }
			},
			{
				"cityName": "嘉義縣/番路鄉",
				"coords":{
                    "lng": "120.6075335",
                    "lat": "23.42765669"
                }
			},
			{
				"cityName": "嘉義縣/梅山鄉",
				"coords":{
                    "lng": "120.6387459",
                    "lat": "23.55535465"
                }
			},
			{
				"cityName": "嘉義縣/竹崎鄉",
				"coords":{
                    "lng": "120.5965771",
                    "lat": "23.50376527"
                }
			},
			{
				"cityName": "嘉義縣/阿里山鄉",
				"coords":{
                    "lng": "120.7596173",
                    "lat": "23.44077619"
                }
			},
			{
				"cityName": "嘉義縣/中埔鄉",
				"coords":{
                    "lng": "120.5365312",
                    "lat": "23.40408998"
                }
			},
			{
				"cityName": "嘉義縣/大埔鄉",
				"coords":{
                    "lng": "120.5896466",
                    "lat": "23.28848426"
                }
			},
			{
				"cityName": "嘉義縣/水上鄉",
				"coords":{
                    "lng": "120.4147357",
                    "lat": "23.42911287"
                }
			},
			{
				"cityName": "嘉義縣/鹿草鄉",
				"coords":{
                    "lng": "120.3045468",
                    "lat": "23.40811736"
                }
			},
			{
				"cityName": "嘉義縣/太保市",
				"coords":{
                    "lng": "120.3440009",
                    "lat": "23.4729191"
                }
			},
			{
				"cityName": "嘉義縣/朴子市",
				"coords":{
                    "lng": "120.2538977",
                    "lat": "23.44610605"
                }
			},
			{
				"cityName": "嘉義縣/東石鄉",
				"coords":{
                    "lng": "120.1738682",
                    "lat": "23.46866059"
                }
			},
			{
				"cityName": "嘉義縣/六腳鄉",
				"coords":{
                    "lng": "120.2714728",
                    "lat": "23.51020984"
                }
			},
			{
				"cityName": "嘉義縣/新港鄉",
				"coords":{
                    "lng": "120.3482873",
                    "lat": "23.54581295"
                }
			},
			{
				"cityName": "嘉義縣/民雄鄉",
				"coords":{
                    "lng": "120.4442798",
                    "lat": "23.54255347"
                }
			},
			{
				"cityName": "嘉義縣/大林鎮",
				"coords":{
                    "lng": "120.4807865",
                    "lat": "23.59890827"
                }
			},
			{
				"cityName": "嘉義縣/溪口鄉",
				"coords":{
                    "lng": "120.4010282",
                    "lat": "23.59353089"
                }
			},
			{
				"cityName": "嘉義縣/義竹鄉",
				"coords":{
                    "lng": "120.2239433",
                    "lat": "23.34575872"
                }
			},
			{
				"cityName": "嘉義縣/布袋鎮",
				"coords":{
                    "lng": "120.1777498",
                    "lat": "23.37494276"
                }
			},
			{
				"cityName": "雲林縣/斗南鎮",
				"coords":{
                    "lng": "120.4826356",
                    "lat": "23.67066393"
                }
			},
			{
				"cityName": "雲林縣/大埤鄉",
				"coords":{
                    "lng": "120.4255592",
                    "lat": "23.6455971"
                }
			},
			{
				"cityName": "雲林縣/虎尾鎮",
				"coords":{
                    "lng": "120.4293061",
                    "lat": "23.71661545"
                }
			},
			{
				"cityName": "雲林縣/土庫鎮",
				"coords":{
                    "lng": "120.3647252",
                    "lat": "23.69110665"
                }
			},
			{
				"cityName": "雲林縣/褒忠鄉",
				"coords":{
                    "lng": "120.3116122",
                    "lat": "23.71613204"
                }
			},
			{
				"cityName": "雲林縣/東勢鄉",
				"coords":{
                    "lng": "120.2564173",
                    "lat": "23.69612324"
                }
			},
			{
				"cityName": "雲林縣/臺西鄉",
				"coords":{
                    "lng": "120.2054952",
                    "lat": "23.71600815"
                }
			},
			{
				"cityName": "雲林縣/崙背鄉",
				"coords":{
                    "lng": "120.3339769",
                    "lat": "23.77849791"
                }
			},
			{
				"cityName": "雲林縣/麥寮鄉",
				"coords":{
                    "lng": "120.243533",
                    "lat": "23.78817056"
                }
			},
			{
				"cityName": "雲林縣/斗六市",
				"coords":{
                    "lng": "120.5600044",
                    "lat": "23.70651883"
                }
			},
			{
				"cityName": "雲林縣/林內鄉",
				"coords":{
                    "lng": "120.6155018",
                    "lat": "23.7557209"
                }
			},
			{
				"cityName": "雲林縣/古坑鄉",
				"coords":{
                    "lng": "120.6117351",
                    "lat": "23.62545469"
                }
			},
			{
				"cityName": "雲林縣/莿桐鄉",
				"coords":{
                    "lng": "120.5290419",
                    "lat": "23.76973894"
                }
			},
			{
				"cityName": "雲林縣/西螺鎮",
				"coords":{
                    "lng": "120.4580795",
                    "lat": "23.77942109"
                }
			},
			{
				"cityName": "雲林縣/二崙鄉",
				"coords":{
                    "lng": "120.3964598",
                    "lat": "23.7925521"
                }
			},
			{
				"cityName": "雲林縣/北港鎮",
				"coords":{
                    "lng": "120.2940164",
                    "lat": "23.59219528"
                }
			},
			{
				"cityName": "雲林縣/水林鄉",
				"coords":{
                    "lng": "120.2352734",
                    "lat": "23.56162849"
                }
			},
			{
				"cityName": "雲林縣/口湖鄉",
				"coords":{
                    "lng": "120.1413711",
                    "lat": "23.55365395"
                }
			},
			{
				"cityName": "雲林縣/四湖鄉",
				"coords":{
                    "lng": "120.2064699",
                    "lat": "23.64206875"
                }
			},
			{
				"cityName": "雲林縣/元長鄉",
				"coords":{
                    "lng": "120.3279617",
                    "lat": "23.64243095"
                }
			},
			{
				"cityName": "臺南市/中西區",
				"coords":{
                    "lng": "120.192874",
                    "lat": "22.99594458"
                }
			},
			{
				"cityName": "臺南市/東區",
				"coords":{
                    "lng": "120.2281858",
                    "lat": "22.98178202"
                }
			},
			{
				"cityName": "臺南市/南區",
				"coords":{
                    "lng": "120.1903743",
                    "lat": "22.95561863"
                }
			},
			{
				"cityName": "臺南市/北區",
				"coords":{
                    "lng": "120.2068735",
                    "lat": "23.01012179"
                }
			},
			{
				"cityName": "臺南市/安平區",
				"coords":{
                    "lng": "120.1649949",
                    "lat": "22.99008437"
                }
			},
			{
				"cityName": "臺南市/安南區",
				"coords":{
                    "lng": "120.1526189",
                    "lat": "23.04869681"
                }
			},
			{
				"cityName": "臺南市/永康區",
				"coords":{
                    "lng": "120.2542795",
                    "lat": "23.02729532"
                }
			},
			{
				"cityName": "臺南市/歸仁區",
				"coords":{
                    "lng": "120.2930627",
                    "lat": "22.94679469"
                }
			},
			{
				"cityName": "臺南市/新化區",
				"coords":{
                    "lng": "120.3357964",
                    "lat": "23.03394545"
                }
			},
			{
				"cityName": "臺南市/左鎮區",
				"coords":{
                    "lng": "120.4123917",
                    "lat": "23.02604611"
                }
			},
			{
				"cityName": "臺南市/玉井區",
				"coords":{
                    "lng": "120.4609622",
                    "lat": "23.11480926"
                }
			},
			{
				"cityName": "臺南市/楠西區",
				"coords":{
                    "lng": "120.5170304",
                    "lat": "23.17885854"
                }
			},
			{
				"cityName": "臺南市/南化區",
				"coords":{
                    "lng": "120.5441223",
                    "lat": "23.1151111"
                }
			},
			{
				"cityName": "臺南市/仁德區",
				"coords":{
                    "lng": "120.2418788",
                    "lat": "22.94130931"
                }
			},
			{
				"cityName": "臺南市/關廟區",
				"coords":{
                    "lng": "120.3342821",
                    "lat": "22.95577909"
                }
			},
			{
				"cityName": "臺南市/龍崎區",
				"coords":{
                    "lng": "120.3869373",
                    "lat": "22.95482276"
                }
			},
			{
				"cityName": "臺南市/官田區",
				"coords":{
                    "lng": "120.3479918",
                    "lat": "23.19098548"
                }
			},
			{
				"cityName": "臺南市/麻豆區",
				"coords":{
                    "lng": "120.241308",
                    "lat": "23.18248033"
                }
			},
			{
				"cityName": "臺南市/佳里區",
				"coords":{
                    "lng": "120.178593",
                    "lat": "23.1669941"
                }
			},
			{
				"cityName": "臺南市/西港區",
				"coords":{
                    "lng": "120.2002309",
                    "lat": "23.12491893"
                }
			},
			{
				"cityName": "臺南市/七股區",
				"coords":{
                    "lng": "120.1005854",
                    "lat": "23.12326578"
                }
			},
			{
				"cityName": "臺南市/將軍區",
				"coords":{
                    "lng": "120.1276958",
                    "lat": "23.20834413"
                }
			},
			{
				"cityName": "臺南市/學甲區",
				"coords":{
                    "lng": "120.1841865",
                    "lat": "23.25219805"
                }
			},
			{
				"cityName": "臺南市/北門區",
				"coords":{
                    "lng": "120.1262357",
                    "lat": "23.2777708"
                }
			},
			{
				"cityName": "臺南市/新營區",
				"coords":{
                    "lng": "120.2954067",
                    "lat": "23.30152488"
                }
			},
			{
				"cityName": "臺南市/後壁區",
				"coords":{
                    "lng": "120.3485081",
                    "lat": "23.36201478"
                }
			},
			{
				"cityName": "臺南市/白河區",
				"coords":{
                    "lng": "120.4578565",
                    "lat": "23.35132068"
                }
			},
			{
				"cityName": "臺南市/東山區",
				"coords":{
                    "lng": "120.4441211",
                    "lat": "23.2783187"
                }
			},
			{
				"cityName": "臺南市/六甲區",
				"coords":{
                    "lng": "120.3800259",
                    "lat": "23.2272672"
                }
			},
			{
				"cityName": "臺南市/下營區",
				"coords":{
                    "lng": "120.26484",
                    "lat": "23.23103978"
                }
			},
			{
				"cityName": "臺南市/柳營區",
				"coords":{
                    "lng": "120.3549205",
                    "lat": "23.26887001"
                }
			},
			{
				"cityName": "臺南市/鹽水區",
				"coords":{
                    "lng": "120.2482977",
                    "lat": "23.29798622"
                }
			},
			{
				"cityName": "臺南市/善化區",
				"coords":{
                    "lng": "120.2988274",
                    "lat": "23.14031072"
                }
			},
			{
				"cityName": "臺南市/大內區",
				"coords":{
                    "lng": "120.3988147",
                    "lat": "23.14482152"
                }
			},
			{
				"cityName": "臺南市/山上區",
				"coords":{
                    "lng": "120.370977",
                    "lat": "23.09689329"
                }
			},
			{
				"cityName": "臺南市/新市區",
				"coords":{
                    "lng": "120.2923941",
                    "lat": "23.08319496"
                }
			},
			{
				"cityName": "臺南市/安定區",
				"coords":{
                    "lng": "120.2296235",
                    "lat": "23.09974927"
                }
			},
			{
				"cityName": "高雄市/新興區",
				"coords":{
                    "lng": "120.3067337",
                    "lat": "22.62992906"
                }
			},
			{
				"cityName": "高雄市/前金區",
				"coords":{
                    "lng": "120.2944217",
                    "lat": "22.6269905"
                }
			},
			{
				"cityName": "高雄市/苓雅區",
				"coords":{
                    "lng": "120.3209103",
                    "lat": "22.62359448"
                }
			},
			{
				"cityName": "高雄市/鹽埕區",
				"coords":{
                    "lng": "120.2842331",
                    "lat": "22.62424585"
                }
			},
			{
				"cityName": "高雄市/鼓山區",
				"coords":{
                    "lng": "120.274163",
                    "lat": "22.65019525"
                }
			},
			{
				"cityName": "高雄市/旗津區",
				"coords":{
                    "lng": "120.2891539",
                    "lat": "22.58565583"
                }
			},
			{
				"cityName": "高雄市/前鎮區",
				"coords":{
                    "lng": "120.3146749",
                    "lat": "22.59269724"
                }
			},
			{
				"cityName": "高雄市/三民區",
				"coords":{
                    "lng": "120.3179187",
                    "lat": "22.64989883"
                }
			},
			{
				"cityName": "高雄市/楠梓區",
				"coords":{
                    "lng": "120.300758",
                    "lat": "22.72109961"
                }
			},
			{
				"cityName": "高雄市/小港區",
				"coords":{
                    "lng": "120.3592605",
                    "lat": "22.55140207"
                }
			},
			{
				"cityName": "高雄市/左營區",
				"coords":{
                    "lng": "120.2951588",
                    "lat": "22.68395699"
                }
			},
			{
				"cityName": "高雄市/仁武區",
				"coords":{
                    "lng": "120.3605265",
                    "lat": "22.70120782"
                }
			},
			{
				"cityName": "高雄市/大社區",
				"coords":{
                    "lng": "120.3707994",
                    "lat": "22.73983479"
                }
			},
			{
				"cityName": "南海諸/島東沙群島",
				"coords":{
                    "lng": "116.906984",
                    "lat": "20.705842"
                }
			},
			{
				"cityName": "南海諸/島南沙群島",
				"coords":{
                    "lng": "115.812406",
                    "lat": "10.724232"
                }
			},
			{
				"cityName": "高雄市/岡山區",
				"coords":{
                    "lng": "120.2978906",
                    "lat": "22.80505886"
                }
			},
			{
				"cityName": "高雄市/路竹區",
				"coords":{
                    "lng": "120.2659871",
                    "lat": "22.85724171"
                }
			},
			{
				"cityName": "高雄市/阿蓮區",
				"coords":{
                    "lng": "120.3210967",
                    "lat": "22.87022883"
                }
			},
			{
				"cityName": "高雄市/田寮區",
				"coords":{
                    "lng": "120.3959842",
                    "lat": "22.86394307"
                }
			},
			{
				"cityName": "高雄市/燕巢區",
				"coords":{
                    "lng": "120.370799",
                    "lat": "22.78769626"
                }
			},
			{
				"cityName": "高雄市/橋頭區",
				"coords":{
                    "lng": "120.3006534",
                    "lat": "22.75252398"
                }
			},
			{
				"cityName": "高雄市/梓官區",
				"coords":{
                    "lng": "120.2593989",
                    "lat": "22.748209"
                }
			},
			{
				"cityName": "高雄市/彌陀區",
				"coords":{
                    "lng": "120.2394571",
                    "lat": "22.77944528"
                }
			},
			{
				"cityName": "高雄市/永安區",
				"coords":{
                    "lng": "120.228051",
                    "lat": "22.82224585"
                }
			},
			{
				"cityName": "高雄市/湖內區",
				"coords":{
                    "lng": "120.2259375",
                    "lat": "22.89324952"
                }
			},
			{
				"cityName": "高雄市/鳳山區",
				"coords":{
                    "lng": "120.3554359",
                    "lat": "22.61379251"
                }
			},
			{
				"cityName": "高雄市/大寮區",
				"coords":{
                    "lng": "120.4111468",
                    "lat": "22.59283576"
                }
			},
			{
				"cityName": "高雄市/林園區",
				"coords":{
                    "lng": "120.399052",
                    "lat": "22.50813743"
                }
			},
			{
				"cityName": "高雄市/鳥松區",
				"coords":{
                    "lng": "120.3727783",
                    "lat": "22.66249302"
                }
			},
			{
				"cityName": "高雄市/大樹區",
				"coords":{
                    "lng": "120.425407",
                    "lat": "22.71100364"
                }
			},
			{
				"cityName": "高雄市/旗山區",
				"coords":{
                    "lng": "120.4754554",
                    "lat": "22.86497033"
                }
			},
			{
				"cityName": "高雄市/美濃區",
				"coords":{
                    "lng": "120.5634635",
                    "lat": "22.90005529"
                }
			},
			{
				"cityName": "高雄市/六龜區",
				"coords":{
                    "lng": "120.6585635",
                    "lat": "23.01195426"
                }
			},
			{
				"cityName": "高雄市/內門區",
				"coords":{
                    "lng": "120.4719272",
                    "lat": "22.95668817"
                }
			},
			{
				"cityName": "高雄市/杉林區",
				"coords":{
                    "lng": "120.5621971",
                    "lat": "22.99694681"
                }
			},
			{
				"cityName": "高雄市/甲仙區",
				"coords":{
                    "lng": "120.6232895",
                    "lat": "23.11654995"
                }
			},
			{
				"cityName": "高雄市/桃源區",
				"coords":{
                    "lng": "120.8523383",
                    "lat": "23.2249459"
                }
			},
			{
				"cityName": "高雄市/那瑪夏區",
				"coords":{
                    "lng": "120.741944",
                    "lat": "23.275008"
                }
			},
			{
				"cityName": "高雄市/茂林區",
				"coords":{
                    "lng": "120.752384",
                    "lat": "22.91993256"
                }
			},
			{
				"cityName": "高雄市/茄萣區",
				"coords":{
                    "lng": "120.1980519",
                    "lat": "22.88241399"
                }
			},
			{
				"cityName": "澎湖縣/馬公市",
				"coords":{
                    "lng": "119.59234",
                    "lat": "23.55534"
                }
			},
			{
				"cityName": "澎湖縣/西嶼鄉",
				"coords":{
                    "lng": "119.50783",
                    "lat": "23.59975"
                }
			},
			{
				"cityName": "澎湖縣/望安鄉",
				"coords":{
                    "lng": "119.50406",
                    "lat": "23.36904"
                }
			},
			{
				"cityName": "澎湖縣/七美鄉",
				"coords":{
                    "lng": "119.43393",
                    "lat": "23.20108"
                }
			},
			{
				"cityName": "澎湖縣/白沙鄉",
				"coords":{
                    "lng": "119.59251",
                    "lat": "23.64178"
                }
			},
			{
				"cityName": "澎湖縣/湖西鄉",
				"coords":{
                    "lng": "119.64462",
                    "lat": "23.57364"
                }
			},
			{
				"cityName": "金門縣/金沙鎮",
				"coords":{
                    "lng": "118.40841",
                    "lat": "24.45865"
                }
			},
			{
				"cityName": "金門縣/金湖鎮",
				"coords":{
                    "lng": "118.40373",
                    "lat": "24.41496"
                }
			},
			{
				"cityName": "金門縣/金寧鄉",
				"coords":{
                    "lng": "118.31705",
                    "lat": "24.42482"
                }
			},
			{
				"cityName": "金門縣/金城鎮",
				"coords":{
                    "lng": "118.30128",
                    "lat": "24.38402"
                }
			},
			{
				"cityName": "金門縣/烈嶼鄉",
				"coords":{
                    "lng": "118.22789",
                    "lat": "24.40166"
                }
			},
			{
				"cityName": "金門縣/烏坵鄉",
				"coords":{
                    "lng": "119.452738",
                    "lat": "24.992338"
                }
			},
			{
				"cityName": "屏東縣/屏東市",
				"coords":{
                    "lng": "120.4799948",
                    "lat": "22.6647375"
                }
			},
			{
				"cityName": "屏東縣/三地門鄉",
				"coords":{
                    "lng": "120.6865219",
                    "lat": "22.79786847"
                }
			},
			{
				"cityName": "屏東縣/霧臺鄉",
				"coords":{
                    "lng": "120.8008099",
                    "lat": "22.75990478"
                }
			},
			{
				"cityName": "屏東縣/瑪家鄉",
				"coords":{
                    "lng": "120.6799239",
                    "lat": "22.67107764"
                }
			},
			{
				"cityName": "屏東縣/九如鄉",
				"coords":{
                    "lng": "120.4845044",
                    "lat": "22.7316677"
                }
			},
			{
				"cityName": "屏東縣/里港鄉",
				"coords":{
                    "lng": "120.5061276",
                    "lat": "22.79854831"
                }
			},
			{
				"cityName": "屏東縣/高樹鄉",
				"coords":{
                    "lng": "120.6017678",
                    "lat": "22.80992022"
                }
			},
			{
				"cityName": "屏東縣/鹽埔鄉",
				"coords":{
                    "lng": "120.5693941",
                    "lat": "22.74253636"
                }
			},
			{
				"cityName": "屏東縣/長治鄉",
				"coords":{
                    "lng": "120.555979",
                    "lat": "22.69454952"
                }
			},
			{
				"cityName": "屏東縣/麟洛鄉",
				"coords":{
                    "lng": "120.5299693",
                    "lat": "22.64876367"
                }
			},
			{
				"cityName": "屏東縣/竹田鄉",
				"coords":{
                    "lng": "120.5266379",
                    "lat": "22.58855636"
                }
			},
			{
				"cityName": "屏東縣/內埔鄉",
				"coords":{
                    "lng": "120.5888222",
                    "lat": "22.65116933"
                }
			},
			{
				"cityName": "屏東縣/萬丹鄉",
				"coords":{
                    "lng": "120.4766188",
                    "lat": "22.58849547"
                }
			},
			{
				"cityName": "屏東縣/潮州鎮",
				"coords":{
                    "lng": "120.5568063",
                    "lat": "22.53642947"
                }
			},
			{
				"cityName": "屏東縣/泰武鄉",
				"coords":{
                    "lng": "120.6917929",
                    "lat": "22.60408477"
                }
			},
			{
				"cityName": "屏東縣/來義鄉",
				"coords":{
                    "lng": "120.6857232",
                    "lat": "22.50157206"
                }
			},
			{
				"cityName": "屏東縣/萬巒鄉",
				"coords":{
                    "lng": "120.601817",
                    "lat": "22.58233459"
                }
			},
			{
				"cityName": "屏東縣/崁頂鄉",
				"coords":{
                    "lng": "120.5006598",
                    "lat": "22.51528151"
                }
			},
			{
				"cityName": "屏東縣/新埤鄉",
				"coords":{
                    "lng": "120.5846257",
                    "lat": "22.48676279"
                }
			},
			{
				"cityName": "屏東縣/南州鄉",
				"coords":{
                    "lng": "120.5180561",
                    "lat": "22.47980704"
                }
			},
			{
				"cityName": "屏東縣/林邊鄉",
				"coords":{
                    "lng": "120.5125095",
                    "lat": "22.44142101"
                }
			},
			{
				"cityName": "屏東縣/東港鎮",
				"coords":{
                    "lng": "120.4751333",
                    "lat": "22.46265635"
                }
			},
			{
				"cityName": "屏東縣/琉球鄉",
				"coords":{
                    "lng": "120.3710466",
                    "lat": "22.34000278"
                }
			},
			{
				"cityName": "屏東縣/佳冬鄉",
				"coords":{
                    "lng": "120.5476124",
                    "lat": "22.42980624"
                }
			},
			{
				"cityName": "屏東縣/新園鄉",
				"coords":{
                    "lng": "120.4501429",
                    "lat": "22.5171903"
                }
			},
			{
				"cityName": "屏東縣/枋寮鄉",
				"coords":{
                    "lng": "120.5975845",
                    "lat": "22.40334199"
                }
			},
			{
				"cityName": "屏東縣/枋山鄉",
				"coords":{
                    "lng": "120.6567673",
                    "lat": "22.27086962"
                }
			},
			{
				"cityName": "屏東縣/春日鄉",
				"coords":{
                    "lng": "120.6975799",
                    "lat": "22.40399754"
                }
			},
			{
				"cityName": "屏東縣/獅子鄉",
				"coords":{
                    "lng": "120.7356454",
                    "lat": "22.26084921"
                }
			},
			{
				"cityName": "屏東縣/車城鄉",
				"coords":{
                    "lng": "120.7432633",
                    "lat": "22.07915617"
                }
			},
			{
				"cityName": "屏東縣/牡丹鄉",
				"coords":{
                    "lng": "120.8173609",
                    "lat": "22.15552859"
                }
			},
			{
				"cityName": "屏東縣/恆春鎮",
				"coords":{
                    "lng": "120.7632537",
                    "lat": "21.98531645"
                }
			},
			{
				"cityName": "屏東縣/滿州鄉",
				"coords":{
                    "lng": "120.8435675",
                    "lat": "22.04930015"
                }
			},
			{
				"cityName": "臺東縣/臺東市",
				"coords":{
                    "lng": "121.1103647",
                    "lat": "22.75165721"
                }
			},
			{
				"cityName": "臺東縣/綠島鄉",
				"coords":{
                    "lng": "121.4901951",
                    "lat": "22.66017537"
                }
			},
			{
				"cityName": "臺東縣/蘭嶼鄉",
				"coords":{
                    "lng": "121.5508328",
                    "lat": "22.04616835"
                }
			},
			{
				"cityName": "臺東縣/延平鄉",
				"coords":{
                    "lng": "120.9831902",
                    "lat": "22.90343174"
                }
			},
			{
				"cityName": "臺東縣/卑南鄉",
				"coords":{
                    "lng": "121.0015521",
                    "lat": "22.76494453"
                }
			},
			{
				"cityName": "臺東縣/鹿野鄉",
				"coords":{
                    "lng": "121.1560376",
                    "lat": "22.95125666"
                }
			},
			{
				"cityName": "臺東縣/關山鎮",
				"coords":{
                    "lng": "121.1766197",
                    "lat": "23.03780684"
                }
			},
			{
				"cityName": "臺東縣/海端鄉",
				"coords":{
                    "lng": "121.0175672",
                    "lat": "23.11478528"
                }
			},
			{
				"cityName": "臺東縣/池上鄉",
				"coords":{
                    "lng": "121.2184501",
                    "lat": "23.09248714"
                }
			},
			{
				"cityName": "臺東縣/東河鄉",
				"coords":{
                    "lng": "121.2517917",
                    "lat": "22.98006921"
                }
			},
			{
				"cityName": "臺東縣/成功鎮",
				"coords":{
                    "lng": "121.3537983",
                    "lat": "23.12663716"
                }
			},
			{
				"cityName": "臺東縣/長濱鄉",
				"coords":{
                    "lng": "121.4261725",
                    "lat": "23.33476899"
                }
			},
			{
				"cityName": "臺東縣/太麻里鄉",
				"coords":{
                    "lng": "120.9797643",
                    "lat": "22.59098082"
                }
			},
			{
				"cityName": "臺東縣/金峰鄉",
				"coords":{
                    "lng": "120.8570384",
                    "lat": "22.58161687"
                }
			},
			{
				"cityName": "臺東縣/大武鄉",
				"coords":{
                    "lng": "120.8991703",
                    "lat": "22.38359522"
                }
			},
			{
				"cityName": "臺東縣/達仁鄉",
				"coords":{
                    "lng": "120.8355239",
                    "lat": "22.38430718"
                }
			},
			{
				"cityName": "花蓮縣/花蓮市",
				"coords":{
                    "lng": "121.6071463",
                    "lat": "23.99700271"
                }
			},
			{
				"cityName": "花蓮縣/新城鄉",
				"coords":{
                    "lng": "121.6137969",
                    "lat": "24.05579952"
                }
			},
			{
				"cityName": "花蓮縣/秀林鄉",
				"coords":{
                    "lng": "121.4807194",
                    "lat": "24.12374414"
                }
			},
			{
				"cityName": "花蓮縣/吉安鄉",
				"coords":{
                    "lng": "121.5646738",
                    "lat": "23.95546585"
                }
			},
			{
				"cityName": "花蓮縣/壽豐鄉",
				"coords":{
                    "lng": "121.5341569",
                    "lat": "23.84459714"
                }
			},
			{
				"cityName": "花蓮縣/鳳林鎮",
				"coords":{
                    "lng": "121.4698848",
                    "lat": "23.74324462"
                }
			},
			{
				"cityName": "花蓮縣/光復鄉",
				"coords":{
                    "lng": "121.4351231",
                    "lat": "23.64658742"
                }
			},
			{
				"cityName": "花蓮縣/豐濱鄉",
				"coords":{
                    "lng": "121.4942331",
                    "lat": "23.58519428"
                }
			},
			{
				"cityName": "花蓮縣/瑞穗鄉",
				"coords":{
                    "lng": "121.4073472",
                    "lat": "23.5156124"
                }
			},
			{
				"cityName": "花蓮縣/萬榮鄉",
				"coords":{
                    "lng": "121.3189531",
                    "lat": "23.72772629"
                }
			},
			{
				"cityName": "花蓮縣/玉里鎮",
				"coords":{
                    "lng": "121.3604476",
                    "lat": "23.37143588"
                }
			},
			{
				"cityName": "花蓮縣/卓溪鄉",
				"coords":{
                    "lng": "121.1804222",
                    "lat": "23.39062875"
                }
			},
			{
				"cityName": "花蓮縣/富里鄉",
				"coords":{
                    "lng": "121.2980494",
                    "lat": "23.19672092"
                }
			}
]

